[
  {
    "userId": "REPLACE_WITH_ACTUAL_USER_ID",
    "name": "Sagar",
    "issueTitle": "Garbage Dump in Guntur",
    "description": "This is a demo report for a garbage dump observed in Guntur. Please attend to this.",
    "category": "Garbage Dump",
    "status": "resolved",
    "lat": 16.302023023165404,
    "lng": 80.39297775494198,
    "address": "{\"street\":\"1th Street\",\"city\":\"Guntur\",\"district\":\"Guntur\",\"state\":\"Andhra Pradesh\",\"country\":\"India\",\"postalCode\":\"500000\"}",
    "state": "Andhra Pradesh",
    "district": "Guntur",
    "images": [],
    "imageId": "demo_image_id",
    "$createdAt": "2025-12-04T10:51:39.991Z",
    "upvotes": 45
  },
  {
    "userId": "REPLACE_WITH_ACTUAL_USER_ID",
    "name": "Sagar",
    "issueTitle": "Stray Animal Menace in Guntur",
    "description": "This is a demo report for a stray animal menace observed in Guntur. Please attend to this.",
    "category": "Stray Animal Menace",
    "status": "in-progress",
    "lat": 16.33319971432995,
    "lng": 80.42861238920926,
    "address": "{\"street\":\"45th Street\",\"city\":\"Guntur\",\"district\":\"Guntur\",\"state\":\"Andhra Pradesh\",\"country\":\"India\",\"postalCode\":\"500000\"}",
    "state": "Andhra Pradesh",
    "district": "Guntur",
    "images": [],
    "imageId": "demo_image_id",
    "$createdAt": "2025-12-04T10:51:40.000Z",
    "upvotes": 23
  },
  {
    "userId": "REPLACE_WITH_ACTUAL_USER_ID",
    "name": "Sagar",
    "issueTitle": "Water Leakage in Guntur",
    "description": "This is a demo report for a water leakage observed in Guntur. Please attend to this.",
    "category": "Water Leakage",
    "status": "in-progress",
    "lat": 16.259241268470795,
    "lng": 80.39746654400115,
    "address": "{\"street\":\"45th Street\",\"city\":\"Guntur\",\"district\":\"Guntur\",\"state\":\"Andhra Pradesh\",\"country\":\"India\",\"postalCode\":\"500000\"}",
    "state": "Andhra Pradesh",
    "district": "Guntur",
    "images": [],
    "imageId": "demo_image_id",
    "$createdAt": "2025-12-04T10:51:40.000Z",
    "upvotes": 8
  },
  {
    "userId": "REPLACE_WITH_ACTUAL_USER_ID",
    "name": "Sagar",
    "issueTitle": "Pothole in Guntur",
    "description": "This is a demo report for a pothole observed in Guntur. Please attend to this.",
    "category": "Pothole",
    "status": "open",
    "lat": 16.3262192686471,
    "lng": 80.44301496710514,
    "address": "{\"street\":\"6th Street\",\"city\":\"Guntur\",\"district\":\"Guntur\",\"state\":\"Andhra Pradesh\",\"country\":\"India\",\"postalCode\":\"500000\"}",
    "state": "Andhra Pradesh",
    "district": "Guntur",
    "images": [],
    "imageId": "demo_image_id",
    "$createdAt": "2025-12-04T10:51:40.000Z",
    "upvotes": 27
  },
  {
    "userId": "REPLACE_WITH_ACTUAL_USER_ID",
    "name": "Sagar",
    "issueTitle": "Garbage Dump in Guntur",
    "description": "This is a demo report for a garbage dump observed in Guntur. Please attend to this.",
    "category": "Garbage Dump",
    "status": "in-progress",
    "lat": 16.264622644200617,
    "lng": 80.42365191783045,
    "address": "{\"street\":\"29th Street\",\"city\":\"Guntur\",\"district\":\"Guntur\",\"state\":\"Andhra Pradesh\",\"country\":\"India\",\"postalCode\":\"500000\"}",
    "state": "Andhra Pradesh",
    "district": "Guntur",
    "images": [],
    "imageId": "demo_image_id",
    "$createdAt": "2025-12-04T10:51:40.000Z",
    "upvotes": 19
  },
  {
    "userId": "REPLACE_WITH_ACTUAL_USER_ID",
    "name": "Sagar",
    "issueTitle": "Illegal Parking in Guntur",
    "description": "This is a demo report for a illegal parking observed in Guntur. Please attend to this.",
    "category": "Illegal Parking",
    "status": "resolved",
    "lat": 16.270916197103844,
    "lng": 80.42604693245227,
    "address": "{\"street\":\"1th Street\",\"city\":\"Guntur\",\"district\":\"Guntur\",\"state\":\"Andhra Pradesh\",\"country\":\"India\",\"postalCode\":\"500000\"}",
    "state": "Andhra Pradesh",
    "district": "Guntur",
    "images": [],
    "imageId": "demo_image_id",
    "$createdAt": "2025-12-04T10:51:40.000Z",
    "upvotes": 42
  },
  {
    "userId": "REPLACE_WITH_ACTUAL_USER_ID",
    "name": "Sagar",
    "issueTitle": "Water Leakage in Guntur",
    "description": "This is a demo report for a water leakage observed in Guntur. Please attend to this.",
    "category": "Water Leakage",
    "status": "open",
    "lat": 16.312444652226404,
    "lng": 80.48091649504744,
    "address": "{\"street\":\"70th Street\",\"city\":\"Guntur\",\"district\":\"Guntur\",\"state\":\"Andhra Pradesh\",\"country\":\"India\",\"postalCode\":\"500000\"}",
    "state": "Andhra Pradesh",
    "district": "Guntur",
    "images": [],
    "imageId": "demo_image_id",
    "$createdAt": "2025-12-04T10:51:40.000Z",
    "upvotes": 28
  },
  {
    "userId": "REPLACE_WITH_ACTUAL_USER_ID",
    "name": "Sagar",
    "issueTitle": "Broken Streetlight in Guntur",
    "description": "This is a demo report for a broken streetlight observed in Guntur. Please attend to this.",
    "category": "Broken Streetlight",
    "status": "open",
    "lat": 16.295227505040348,
    "lng": 80.45453905083819,
    "address": "{\"street\":\"0th Street\",\"city\":\"Guntur\",\"district\":\"Guntur\",\"state\":\"Andhra Pradesh\",\"country\":\"India\",\"postalCode\":\"500000\"}",
    "state": "Andhra Pradesh",
    "district": "Guntur",
    "images": [],
    "imageId": "demo_image_id",
    "$createdAt": "2025-12-04T10:51:40.000Z",
    "upvotes": 7
  },
  {
    "userId": "REPLACE_WITH_ACTUAL_USER_ID",
    "name": "Sagar",
    "issueTitle": "Broken Streetlight in Guntur",
    "description": "This is a demo report for a broken streetlight observed in Guntur. Please attend to this.",
    "category": "Broken Streetlight",
    "status": "open",
    "lat": 16.302833522044985,
    "lng": 80.47613013551046,
    "address": "{\"street\":\"6th Street\",\"city\":\"Guntur\",\"district\":\"Guntur\",\"state\":\"Andhra Pradesh\",\"country\":\"India\",\"postalCode\":\"500000\"}",
    "state": "Andhra Pradesh",
    "district": "Guntur",
    "images": [],
    "imageId": "demo_image_id",
    "$createdAt": "2025-12-04T10:51:40.000Z",
    "upvotes": 24
  },
  {
    "userId": "REPLACE_WITH_ACTUAL_USER_ID",
    "name": "Sagar",
    "issueTitle": "Water Leakage in Guntur",
    "description": "This is a demo report for a water leakage observed in Guntur. Please attend to this.",
    "category": "Water Leakage",
    "status": "in-progress",
    "lat": 16.311828729318812,
    "lng": 80.46247214218135,
    "address": "{\"street\":\"21th Street\",\"city\":\"Guntur\",\"district\":\"Guntur\",\"state\":\"Andhra Pradesh\",\"country\":\"India\",\"postalCode\":\"500000\"}",
    "state": "Andhra Pradesh",
    "district": "Guntur",
    "images": [],
    "imageId": "demo_image_id",
    "$createdAt": "2025-12-04T10:51:40.000Z",
    "upvotes": 23
  },
  {
    "userId": "REPLACE_WITH_ACTUAL_USER_ID",
    "name": "Sagar",
    "issueTitle": "Water Leakage in Guntur",
    "description": "This is a demo report for a water leakage observed in Guntur. Please attend to this.",
    "category": "Water Leakage",
    "status": "open",
    "lat": 16.31746338119113,
    "lng": 80.39602935167744,
    "address": "{\"street\":\"23th Street\",\"city\":\"Guntur\",\"district\":\"Guntur\",\"state\":\"Andhra Pradesh\",\"country\":\"India\",\"postalCode\":\"500000\"}",
    "state": "Andhra Pradesh",
    "district": "Guntur",
    "images": [],
    "imageId": "demo_image_id",
    "$createdAt": "2025-12-04T10:51:40.000Z",
    "upvotes": 20
  },
  {
    "userId": "REPLACE_WITH_ACTUAL_USER_ID",
    "name": "Sagar",
    "issueTitle": "Water Leakage in Guntur",
    "description": "This is a demo report for a water leakage observed in Guntur. Please attend to this.",
    "category": "Water Leakage",
    "status": "open",
    "lat": 16.35247014042476,
    "lng": 80.41096608156418,
    "address": "{\"street\":\"3th Street\",\"city\":\"Guntur\",\"district\":\"Guntur\",\"state\":\"Andhra Pradesh\",\"country\":\"India\",\"postalCode\":\"500000\"}",
    "state": "Andhra Pradesh",
    "district": "Guntur",
    "images": [],
    "imageId": "demo_image_id",
    "$createdAt": "2025-12-04T10:51:40.000Z",
    "upvotes": 24
  },
  {
    "userId": "REPLACE_WITH_ACTUAL_USER_ID",
    "name": "Sagar",
    "issueTitle": "Broken Streetlight in Guntur",
    "description": "This is a demo report for a broken streetlight observed in Guntur. Please attend to this.",
    "category": "Broken Streetlight",
    "status": "in-progress",
    "lat": 16.258273663354903,
    "lng": 80.47626350569902,
    "address": "{\"street\":\"64th Street\",\"city\":\"Guntur\",\"district\":\"Guntur\",\"state\":\"Andhra Pradesh\",\"country\":\"India\",\"postalCode\":\"500000\"}",
    "state": "Andhra Pradesh",
    "district": "Guntur",
    "images": [],
    "imageId": "demo_image_id",
    "$createdAt": "2025-12-04T10:51:40.000Z",
    "upvotes": 12
  },
  {
    "userId": "REPLACE_WITH_ACTUAL_USER_ID",
    "name": "Sagar",
    "issueTitle": "Water Leakage in Guntur",
    "description": "This is a demo report for a water leakage observed in Guntur. Please attend to this.",
    "category": "Water Leakage",
    "status": "resolved",
    "lat": 16.321366655523793,
    "lng": 80.47703142650957,
    "address": "{\"street\":\"96th Street\",\"city\":\"Guntur\",\"district\":\"Guntur\",\"state\":\"Andhra Pradesh\",\"country\":\"India\",\"postalCode\":\"500000\"}",
    "state": "Andhra Pradesh",
    "district": "Guntur",
    "images": [],
    "imageId": "demo_image_id",
    "$createdAt": "2025-12-04T10:51:40.000Z",
    "upvotes": 22
  },
  {
    "userId": "REPLACE_WITH_ACTUAL_USER_ID",
    "name": "Sagar",
    "issueTitle": "Broken Streetlight in Guntur",
    "description": "This is a demo report for a broken streetlight observed in Guntur. Please attend to this.",
    "category": "Broken Streetlight",
    "status": "open",
    "lat": 16.34540726099969,
    "lng": 80.44537236620324,
    "address": "{\"street\":\"41th Street\",\"city\":\"Guntur\",\"district\":\"Guntur\",\"state\":\"Andhra Pradesh\",\"country\":\"India\",\"postalCode\":\"500000\"}",
    "state": "Andhra Pradesh",
    "district": "Guntur",
    "images": [],
    "imageId": "demo_image_id",
    "$createdAt": "2025-12-04T10:51:40.000Z",
    "upvotes": 43
  },
  {
    "userId": "REPLACE_WITH_ACTUAL_USER_ID",
    "name": "Sagar",
    "issueTitle": "Water Leakage in Guntur",
    "description": "This is a demo report for a water leakage observed in Guntur. Please attend to this.",
    "category": "Water Leakage",
    "status": "resolved",
    "lat": 16.34295194231998,
    "lng": 80.43094830777757,
    "address": "{\"street\":\"32th Street\",\"city\":\"Guntur\",\"district\":\"Guntur\",\"state\":\"Andhra Pradesh\",\"country\":\"India\",\"postalCode\":\"500000\"}",
    "state": "Andhra Pradesh",
    "district": "Guntur",
    "images": [],
    "imageId": "demo_image_id",
    "$createdAt": "2025-12-04T10:51:40.000Z",
    "upvotes": 22
  },
  {
    "userId": "REPLACE_WITH_ACTUAL_USER_ID",
    "name": "Sagar",
    "issueTitle": "Water Leakage in Guntur",
    "description": "This is a demo report for a water leakage observed in Guntur. Please attend to this.",
    "category": "Water Leakage",
    "status": "in-progress",
    "lat": 16.274848696997683,
    "lng": 80.398865964088,
    "address": "{\"street\":\"21th Street\",\"city\":\"Guntur\",\"district\":\"Guntur\",\"state\":\"Andhra Pradesh\",\"country\":\"India\",\"postalCode\":\"500000\"}",
    "state": "Andhra Pradesh",
    "district": "Guntur",
    "images": [],
    "imageId": "demo_image_id",
    "$createdAt": "2025-12-04T10:51:40.000Z",
    "upvotes": 45
  },
  {
    "userId": "REPLACE_WITH_ACTUAL_USER_ID",
    "name": "Sagar",
    "issueTitle": "Pothole in Guntur",
    "description": "This is a demo report for a pothole observed in Guntur. Please attend to this.",
    "category": "Pothole",
    "status": "resolved",
    "lat": 16.311884261315058,
    "lng": 80.43741794619316,
    "address": "{\"street\":\"77th Street\",\"city\":\"Guntur\",\"district\":\"Guntur\",\"state\":\"Andhra Pradesh\",\"country\":\"India\",\"postalCode\":\"500000\"}",
    "state": "Andhra Pradesh",
    "district": "Guntur",
    "images": [],
    "imageId": "demo_image_id",
    "$createdAt": "2025-12-04T10:51:40.000Z",
    "upvotes": 4
  },
  {
    "userId": "REPLACE_WITH_ACTUAL_USER_ID",
    "name": "Sagar",
    "issueTitle": "Water Leakage in Guntur",
    "description": "This is a demo report for a water leakage observed in Guntur. Please attend to this.",
    "category": "Water Leakage",
    "status": "resolved",
    "lat": 16.261090154441366,
    "lng": 80.47954579429403,
    "address": "{\"street\":\"11th Street\",\"city\":\"Guntur\",\"district\":\"Guntur\",\"state\":\"Andhra Pradesh\",\"country\":\"India\",\"postalCode\":\"500000\"}",
    "state": "Andhra Pradesh",
    "district": "Guntur",
    "images": [],
    "imageId": "demo_image_id",
    "$createdAt": "2025-12-04T10:51:40.000Z",
    "upvotes": 33
  },
  {
    "userId": "REPLACE_WITH_ACTUAL_USER_ID",
    "name": "Sagar",
    "issueTitle": "Broken Streetlight in Guntur",
    "description": "This is a demo report for a broken streetlight observed in Guntur. Please attend to this.",
    "category": "Broken Streetlight",
    "status": "resolved",
    "lat": 16.290356023476456,
    "lng": 80.47842829236608,
    "address": "{\"street\":\"78th Street\",\"city\":\"Guntur\",\"district\":\"Guntur\",\"state\":\"Andhra Pradesh\",\"country\":\"India\",\"postalCode\":\"500000\"}",
    "state": "Andhra Pradesh",
    "district": "Guntur",
    "images": [],
    "imageId": "demo_image_id",
    "$createdAt": "2025-12-04T10:51:40.000Z",
    "upvotes": 12
  },
  {
    "userId": "REPLACE_WITH_ACTUAL_USER_ID",
    "name": "Sagar",
    "issueTitle": "Water Leakage in Visakhapatnam",
    "description": "This is a demo report for a water leakage observed in Visakhapatnam. Please attend to this.",
    "category": "Water Leakage",
    "status": "open",
    "lat": 17.70808433293271,
    "lng": 83.23421047459762,
    "address": "{\"street\":\"3th Street\",\"city\":\"Visakhapatnam\",\"district\":\"Visakhapatnam\",\"state\":\"Andhra Pradesh\",\"country\":\"India\",\"postalCode\":\"500000\"}",
    "state": "Andhra Pradesh",
    "district": "Visakhapatnam",
    "images": [],
    "imageId": "demo_image_id",
    "$createdAt": "2025-12-04T10:51:40.000Z",
    "upvotes": 31
  },
  {
    "userId": "REPLACE_WITH_ACTUAL_USER_ID",
    "name": "Sagar",
    "issueTitle": "Garbage Dump in Visakhapatnam",
    "description": "This is a demo report for a garbage dump observed in Visakhapatnam. Please attend to this.",
    "category": "Garbage Dump",
    "status": "resolved",
    "lat": 17.72116211932805,
    "lng": 83.17970691787906,
    "address": "{\"street\":\"26th Street\",\"city\":\"Visakhapatnam\",\"district\":\"Visakhapatnam\",\"state\":\"Andhra Pradesh\",\"country\":\"India\",\"postalCode\":\"500000\"}",
    "state": "Andhra Pradesh",
    "district": "Visakhapatnam",
    "images": [],
    "imageId": "demo_image_id",
    "$createdAt": "2025-12-04T10:51:40.000Z",
    "upvotes": 13
  },
  {
    "userId": "REPLACE_WITH_ACTUAL_USER_ID",
    "name": "Sagar",
    "issueTitle": "Garbage Dump in Visakhapatnam",
    "description": "This is a demo report for a garbage dump observed in Visakhapatnam. Please attend to this.",
    "category": "Garbage Dump",
    "status": "in-progress",
    "lat": 17.722693271827367,
    "lng": 83.19264117609357,
    "address": "{\"street\":\"83th Street\",\"city\":\"Visakhapatnam\",\"district\":\"Visakhapatnam\",\"state\":\"Andhra Pradesh\",\"country\":\"India\",\"postalCode\":\"500000\"}",
    "state": "Andhra Pradesh",
    "district": "Visakhapatnam",
    "images": [],
    "imageId": "demo_image_id",
    "$createdAt": "2025-12-04T10:51:40.000Z",
    "upvotes": 28
  },
  {
    "userId": "REPLACE_WITH_ACTUAL_USER_ID",
    "name": "Sagar",
    "issueTitle": "Drainage Blockage in Visakhapatnam",
    "description": "This is a demo report for a drainage blockage observed in Visakhapatnam. Please attend to this.",
    "category": "Drainage Blockage",
    "status": "resolved",
    "lat": 17.706751641150788,
    "lng": 83.25808401404181,
    "address": "{\"street\":\"76th Street\",\"city\":\"Visakhapatnam\",\"district\":\"Visakhapatnam\",\"state\":\"Andhra Pradesh\",\"country\":\"India\",\"postalCode\":\"500000\"}",
    "state": "Andhra Pradesh",
    "district": "Visakhapatnam",
    "images": [],
    "imageId": "demo_image_id",
    "$createdAt": "2025-12-04T10:51:40.000Z",
    "upvotes": 48
  },
  {
    "userId": "REPLACE_WITH_ACTUAL_USER_ID",
    "name": "Sagar",
    "issueTitle": "Stray Animal Menace in Visakhapatnam",
    "description": "This is a demo report for a stray animal menace observed in Visakhapatnam. Please attend to this.",
    "category": "Stray Animal Menace",
    "status": "open",
    "lat": 17.721531053305586,
    "lng": 83.17831821078077,
    "address": "{\"street\":\"98th Street\",\"city\":\"Visakhapatnam\",\"district\":\"Visakhapatnam\",\"state\":\"Andhra Pradesh\",\"country\":\"India\",\"postalCode\":\"500000\"}",
    "state": "Andhra Pradesh",
    "district": "Visakhapatnam",
    "images": [],
    "imageId": "demo_image_id",
    "$createdAt": "2025-12-04T10:51:40.000Z",
    "upvotes": 13
  },
  {
    "userId": "REPLACE_WITH_ACTUAL_USER_ID",
    "name": "Sagar",
    "issueTitle": "Drainage Blockage in Visakhapatnam",
    "description": "This is a demo report for a drainage blockage observed in Visakhapatnam. Please attend to this.",
    "category": "Drainage Blockage",
    "status": "resolved",
    "lat": 17.726498461932195,
    "lng": 83.1690295470444,
    "address": "{\"street\":\"21th Street\",\"city\":\"Visakhapatnam\",\"district\":\"Visakhapatnam\",\"state\":\"Andhra Pradesh\",\"country\":\"India\",\"postalCode\":\"500000\"}",
    "state": "Andhra Pradesh",
    "district": "Visakhapatnam",
    "images": [],
    "imageId": "demo_image_id",
    "$createdAt": "2025-12-04T10:51:40.000Z",
    "upvotes": 39
  },
  {
    "userId": "REPLACE_WITH_ACTUAL_USER_ID",
    "name": "Sagar",
    "issueTitle": "Garbage Dump in Visakhapatnam",
    "description": "This is a demo report for a garbage dump observed in Visakhapatnam. Please attend to this.",
    "category": "Garbage Dump",
    "status": "resolved",
    "lat": 17.69242664803996,
    "lng": 83.26116206810804,
    "address": "{\"street\":\"33th Street\",\"city\":\"Visakhapatnam\",\"district\":\"Visakhapatnam\",\"state\":\"Andhra Pradesh\",\"country\":\"India\",\"postalCode\":\"500000\"}",
    "state": "Andhra Pradesh",
    "district": "Visakhapatnam",
    "images": [],
    "imageId": "demo_image_id",
    "$createdAt": "2025-12-04T10:51:40.000Z",
    "upvotes": 46
  },
  {
    "userId": "REPLACE_WITH_ACTUAL_USER_ID",
    "name": "Sagar",
    "issueTitle": "Pothole in Visakhapatnam",
    "description": "This is a demo report for a pothole observed in Visakhapatnam. Please attend to this.",
    "category": "Pothole",
    "status": "open",
    "lat": 17.681409794570193,
    "lng": 83.19746781956407,
    "address": "{\"street\":\"43th Street\",\"city\":\"Visakhapatnam\",\"district\":\"Visakhapatnam\",\"state\":\"Andhra Pradesh\",\"country\":\"India\",\"postalCode\":\"500000\"}",
    "state": "Andhra Pradesh",
    "district": "Visakhapatnam",
    "images": [],
    "imageId": "demo_image_id",
    "$createdAt": "2025-12-04T10:51:40.000Z",
    "upvotes": 33
  },
  {
    "userId": "REPLACE_WITH_ACTUAL_USER_ID",
    "name": "Sagar",
    "issueTitle": "Garbage Dump in Visakhapatnam",
    "description": "This is a demo report for a garbage dump observed in Visakhapatnam. Please attend to this.",
    "category": "Garbage Dump",
    "status": "resolved",
    "lat": 17.735679364078656,
    "lng": 83.1780248375241,
    "address": "{\"street\":\"84th Street\",\"city\":\"Visakhapatnam\",\"district\":\"Visakhapatnam\",\"state\":\"Andhra Pradesh\",\"country\":\"India\",\"postalCode\":\"500000\"}",
    "state": "Andhra Pradesh",
    "district": "Visakhapatnam",
    "images": [],
    "imageId": "demo_image_id",
    "$createdAt": "2025-12-04T10:51:40.000Z",
    "upvotes": 41
  },
  {
    "userId": "REPLACE_WITH_ACTUAL_USER_ID",
    "name": "Sagar",
    "issueTitle": "Broken Streetlight in Visakhapatnam",
    "description": "This is a demo report for a broken streetlight observed in Visakhapatnam. Please attend to this.",
    "category": "Broken Streetlight",
    "status": "open",
    "lat": 17.665247345028032,
    "lng": 83.25278810004603,
    "address": "{\"street\":\"92th Street\",\"city\":\"Visakhapatnam\",\"district\":\"Visakhapatnam\",\"state\":\"Andhra Pradesh\",\"country\":\"India\",\"postalCode\":\"500000\"}",
    "state": "Andhra Pradesh",
    "district": "Visakhapatnam",
    "images": [],
    "imageId": "demo_image_id",
    "$createdAt": "2025-12-04T10:51:40.000Z",
    "upvotes": 24
  },
  {
    "userId": "REPLACE_WITH_ACTUAL_USER_ID",
    "name": "Sagar",
    "issueTitle": "Water Leakage in Visakhapatnam",
    "description": "This is a demo report for a water leakage observed in Visakhapatnam. Please attend to this.",
    "category": "Water Leakage",
    "status": "open",
    "lat": 17.695390018968148,
    "lng": 83.172124092133,
    "address": "{\"street\":\"89th Street\",\"city\":\"Visakhapatnam\",\"district\":\"Visakhapatnam\",\"state\":\"Andhra Pradesh\",\"country\":\"India\",\"postalCode\":\"500000\"}",
    "state": "Andhra Pradesh",
    "district": "Visakhapatnam",
    "images": [],
    "imageId": "demo_image_id",
    "$createdAt": "2025-12-04T10:51:40.000Z",
    "upvotes": 20
  },
  {
    "userId": "REPLACE_WITH_ACTUAL_USER_ID",
    "name": "Sagar",
    "issueTitle": "Water Leakage in Visakhapatnam",
    "description": "This is a demo report for a water leakage observed in Visakhapatnam. Please attend to this.",
    "category": "Water Leakage",
    "status": "in-progress",
    "lat": 17.673507352078353,
    "lng": 83.21039273492336,
    "address": "{\"street\":\"12th Street\",\"city\":\"Visakhapatnam\",\"district\":\"Visakhapatnam\",\"state\":\"Andhra Pradesh\",\"country\":\"India\",\"postalCode\":\"500000\"}",
    "state": "Andhra Pradesh",
    "district": "Visakhapatnam",
    "images": [],
    "imageId": "demo_image_id",
    "$createdAt": "2025-12-04T10:51:40.000Z",
    "upvotes": 4
  },
  {
    "userId": "REPLACE_WITH_ACTUAL_USER_ID",
    "name": "Sagar",
    "issueTitle": "Water Leakage in Visakhapatnam",
    "description": "This is a demo report for a water leakage observed in Visakhapatnam. Please attend to this.",
    "category": "Water Leakage",
    "status": "in-progress",
    "lat": 17.665671398457167,
    "lng": 83.18016984368268,
    "address": "{\"street\":\"8th Street\",\"city\":\"Visakhapatnam\",\"district\":\"Visakhapatnam\",\"state\":\"Andhra Pradesh\",\"country\":\"India\",\"postalCode\":\"500000\"}",
    "state": "Andhra Pradesh",
    "district": "Visakhapatnam",
    "images": [],
    "imageId": "demo_image_id",
    "$createdAt": "2025-12-04T10:51:40.000Z",
    "upvotes": 2
  },
  {
    "userId": "REPLACE_WITH_ACTUAL_USER_ID",
    "name": "Sagar",
    "issueTitle": "Pothole in Visakhapatnam",
    "description": "This is a demo report for a pothole observed in Visakhapatnam. Please attend to this.",
    "category": "Pothole",
    "status": "open",
    "lat": 17.64394522664132,
    "lng": 83.20445885360934,
    "address": "{\"street\":\"40th Street\",\"city\":\"Visakhapatnam\",\"district\":\"Visakhapatnam\",\"state\":\"Andhra Pradesh\",\"country\":\"India\",\"postalCode\":\"500000\"}",
    "state": "Andhra Pradesh",
    "district": "Visakhapatnam",
    "images": [],
    "imageId": "demo_image_id",
    "$createdAt": "2025-12-04T10:51:40.000Z",
    "upvotes": 47
  },
  {
    "userId": "REPLACE_WITH_ACTUAL_USER_ID",
    "name": "Sagar",
    "issueTitle": "Drainage Blockage in Visakhapatnam",
    "description": "This is a demo report for a drainage blockage observed in Visakhapatnam. Please attend to this.",
    "category": "Drainage Blockage",
    "status": "resolved",
    "lat": 17.657315294458872,
    "lng": 83.26605190905582,
    "address": "{\"street\":\"34th Street\",\"city\":\"Visakhapatnam\",\"district\":\"Visakhapatnam\",\"state\":\"Andhra Pradesh\",\"country\":\"India\",\"postalCode\":\"500000\"}",
    "state": "Andhra Pradesh",
    "district": "Visakhapatnam",
    "images": [],
    "imageId": "demo_image_id",
    "$createdAt": "2025-12-04T10:51:40.000Z",
    "upvotes": 44
  },
  {
    "userId": "REPLACE_WITH_ACTUAL_USER_ID",
    "name": "Sagar",
    "issueTitle": "Drainage Blockage in Visakhapatnam",
    "description": "This is a demo report for a drainage blockage observed in Visakhapatnam. Please attend to this.",
    "category": "Drainage Blockage",
    "status": "in-progress",
    "lat": 17.69228304571497,
    "lng": 83.26422165731313,
    "address": "{\"street\":\"17th Street\",\"city\":\"Visakhapatnam\",\"district\":\"Visakhapatnam\",\"state\":\"Andhra Pradesh\",\"country\":\"India\",\"postalCode\":\"500000\"}",
    "state": "Andhra Pradesh",
    "district": "Visakhapatnam",
    "images": [],
    "imageId": "demo_image_id",
    "$createdAt": "2025-12-04T10:51:40.000Z",
    "upvotes": 8
  },
  {
    "userId": "REPLACE_WITH_ACTUAL_USER_ID",
    "name": "Sagar",
    "issueTitle": "Stray Animal Menace in Visakhapatnam",
    "description": "This is a demo report for a stray animal menace observed in Visakhapatnam. Please attend to this.",
    "category": "Stray Animal Menace",
    "status": "open",
    "lat": 17.665693164515634,
    "lng": 83.20414150596636,
    "address": "{\"street\":\"68th Street\",\"city\":\"Visakhapatnam\",\"district\":\"Visakhapatnam\",\"state\":\"Andhra Pradesh\",\"country\":\"India\",\"postalCode\":\"500000\"}",
    "state": "Andhra Pradesh",
    "district": "Visakhapatnam",
    "images": [],
    "imageId": "demo_image_id",
    "$createdAt": "2025-12-04T10:51:40.000Z",
    "upvotes": 46
  },
  {
    "userId": "REPLACE_WITH_ACTUAL_USER_ID",
    "name": "Sagar",
    "issueTitle": "Water Leakage in Visakhapatnam",
    "description": "This is a demo report for a water leakage observed in Visakhapatnam. Please attend to this.",
    "category": "Water Leakage",
    "status": "resolved",
    "lat": 17.732660453709244,
    "lng": 83.199254534176,
    "address": "{\"street\":\"24th Street\",\"city\":\"Visakhapatnam\",\"district\":\"Visakhapatnam\",\"state\":\"Andhra Pradesh\",\"country\":\"India\",\"postalCode\":\"500000\"}",
    "state": "Andhra Pradesh",
    "district": "Visakhapatnam",
    "images": [],
    "imageId": "demo_image_id",
    "$createdAt": "2025-12-04T10:51:40.000Z",
    "upvotes": 46
  },
  {
    "userId": "REPLACE_WITH_ACTUAL_USER_ID",
    "name": "Sagar",
    "issueTitle": "Water Leakage in Visakhapatnam",
    "description": "This is a demo report for a water leakage observed in Visakhapatnam. Please attend to this.",
    "category": "Water Leakage",
    "status": "resolved",
    "lat": 17.73318607687219,
    "lng": 83.23106501347571,
    "address": "{\"street\":\"7th Street\",\"city\":\"Visakhapatnam\",\"district\":\"Visakhapatnam\",\"state\":\"Andhra Pradesh\",\"country\":\"India\",\"postalCode\":\"500000\"}",
    "state": "Andhra Pradesh",
    "district": "Visakhapatnam",
    "images": [],
    "imageId": "demo_image_id",
    "$createdAt": "2025-12-04T10:51:40.000Z",
    "upvotes": 41
  },
  {
    "userId": "REPLACE_WITH_ACTUAL_USER_ID",
    "name": "Sagar",
    "issueTitle": "Illegal Parking in Visakhapatnam",
    "description": "This is a demo report for a illegal parking observed in Visakhapatnam. Please attend to this.",
    "category": "Illegal Parking",
    "status": "open",
    "lat": 17.67381271558949,
    "lng": 83.20152552516342,
    "address": "{\"street\":\"45th Street\",\"city\":\"Visakhapatnam\",\"district\":\"Visakhapatnam\",\"state\":\"Andhra Pradesh\",\"country\":\"India\",\"postalCode\":\"500000\"}",
    "state": "Andhra Pradesh",
    "district": "Visakhapatnam",
    "images": [],
    "imageId": "demo_image_id",
    "$createdAt": "2025-12-04T10:51:40.000Z",
    "upvotes": 15
  },
  {
    "userId": "REPLACE_WITH_ACTUAL_USER_ID",
    "name": "Sagar",
    "issueTitle": "Drainage Blockage in Kurnool",
    "description": "This is a demo report for a drainage blockage observed in Kurnool. Please attend to this.",
    "category": "Drainage Blockage",
    "status": "open",
    "lat": 15.815361204574936,
    "lng": 78.0328100702311,
    "address": "{\"street\":\"20th Street\",\"city\":\"Kurnool\",\"district\":\"Kurnool\",\"state\":\"Andhra Pradesh\",\"country\":\"India\",\"postalCode\":\"500000\"}",
    "state": "Andhra Pradesh",
    "district": "Kurnool",
    "images": [],
    "imageId": "demo_image_id",
    "$createdAt": "2025-12-04T10:51:40.000Z",
    "upvotes": 4
  },
  {
    "userId": "REPLACE_WITH_ACTUAL_USER_ID",
    "name": "Sagar",
    "issueTitle": "Pothole in Kurnool",
    "description": "This is a demo report for a pothole observed in Kurnool. Please attend to this.",
    "category": "Pothole",
    "status": "resolved",
    "lat": 15.812439767292133,
    "lng": 78.02445107577451,
    "address": "{\"street\":\"19th Street\",\"city\":\"Kurnool\",\"district\":\"Kurnool\",\"state\":\"Andhra Pradesh\",\"country\":\"India\",\"postalCode\":\"500000\"}",
    "state": "Andhra Pradesh",
    "district": "Kurnool",
    "images": [],
    "imageId": "demo_image_id",
    "$createdAt": "2025-12-04T10:51:40.000Z",
    "upvotes": 39
  },
  {
    "userId": "REPLACE_WITH_ACTUAL_USER_ID",
    "name": "Sagar",
    "issueTitle": "Pothole in Kurnool",
    "description": "This is a demo report for a pothole observed in Kurnool. Please attend to this.",
    "category": "Pothole",
    "status": "open",
    "lat": 15.81765721396034,
    "lng": 78.00942302187205,
    "address": "{\"street\":\"7th Street\",\"city\":\"Kurnool\",\"district\":\"Kurnool\",\"state\":\"Andhra Pradesh\",\"country\":\"India\",\"postalCode\":\"500000\"}",
    "state": "Andhra Pradesh",
    "district": "Kurnool",
    "images": [],
    "imageId": "demo_image_id",
    "$createdAt": "2025-12-04T10:51:40.000Z",
    "upvotes": 32
  },
  {
    "userId": "REPLACE_WITH_ACTUAL_USER_ID",
    "name": "Sagar",
    "issueTitle": "Illegal Parking in Kurnool",
    "description": "This is a demo report for a illegal parking observed in Kurnool. Please attend to this.",
    "category": "Illegal Parking",
    "status": "open",
    "lat": 15.864732399797772,
    "lng": 77.99409138192023,
    "address": "{\"street\":\"61th Street\",\"city\":\"Kurnool\",\"district\":\"Kurnool\",\"state\":\"Andhra Pradesh\",\"country\":\"India\",\"postalCode\":\"500000\"}",
    "state": "Andhra Pradesh",
    "district": "Kurnool",
    "images": [],
    "imageId": "demo_image_id",
    "$createdAt": "2025-12-04T10:51:40.000Z",
    "upvotes": 30
  },
  {
    "userId": "REPLACE_WITH_ACTUAL_USER_ID",
    "name": "Sagar",
    "issueTitle": "Stray Animal Menace in Kurnool",
    "description": "This is a demo report for a stray animal menace observed in Kurnool. Please attend to this.",
    "category": "Stray Animal Menace",
    "status": "resolved",
    "lat": 15.871688839997539,
    "lng": 78.02892622835961,
    "address": "{\"street\":\"87th Street\",\"city\":\"Kurnool\",\"district\":\"Kurnool\",\"state\":\"Andhra Pradesh\",\"country\":\"India\",\"postalCode\":\"500000\"}",
    "state": "Andhra Pradesh",
    "district": "Kurnool",
    "images": [],
    "imageId": "demo_image_id",
    "$createdAt": "2025-12-04T10:51:40.000Z",
    "upvotes": 1
  },
  {
    "userId": "REPLACE_WITH_ACTUAL_USER_ID",
    "name": "Sagar",
    "issueTitle": "Garbage Dump in Kurnool",
    "description": "This is a demo report for a garbage dump observed in Kurnool. Please attend to this.",
    "category": "Garbage Dump",
    "status": "resolved",
    "lat": 15.850217857732614,
    "lng": 78.00616089506171,
    "address": "{\"street\":\"33th Street\",\"city\":\"Kurnool\",\"district\":\"Kurnool\",\"state\":\"Andhra Pradesh\",\"country\":\"India\",\"postalCode\":\"500000\"}",
    "state": "Andhra Pradesh",
    "district": "Kurnool",
    "images": [],
    "imageId": "demo_image_id",
    "$createdAt": "2025-12-04T10:51:40.000Z",
    "upvotes": 39
  },
  {
    "userId": "REPLACE_WITH_ACTUAL_USER_ID",
    "name": "Sagar",
    "issueTitle": "Drainage Blockage in Kurnool",
    "description": "This is a demo report for a drainage blockage observed in Kurnool. Please attend to this.",
    "category": "Drainage Blockage",
    "status": "resolved",
    "lat": 15.782075231427886,
    "lng": 78.03588861845994,
    "address": "{\"street\":\"62th Street\",\"city\":\"Kurnool\",\"district\":\"Kurnool\",\"state\":\"Andhra Pradesh\",\"country\":\"India\",\"postalCode\":\"500000\"}",
    "state": "Andhra Pradesh",
    "district": "Kurnool",
    "images": [],
    "imageId": "demo_image_id",
    "$createdAt": "2025-12-04T10:51:40.000Z",
    "upvotes": 47
  },
  {
    "userId": "REPLACE_WITH_ACTUAL_USER_ID",
    "name": "Sagar",
    "issueTitle": "Drainage Blockage in Kurnool",
    "description": "This is a demo report for a drainage blockage observed in Kurnool. Please attend to this.",
    "category": "Drainage Blockage",
    "status": "resolved",
    "lat": 15.857265537711887,
    "lng": 78.02157581085628,
    "address": "{\"street\":\"83th Street\",\"city\":\"Kurnool\",\"district\":\"Kurnool\",\"state\":\"Andhra Pradesh\",\"country\":\"India\",\"postalCode\":\"500000\"}",
    "state": "Andhra Pradesh",
    "district": "Kurnool",
    "images": [],
    "imageId": "demo_image_id",
    "$createdAt": "2025-12-04T10:51:40.000Z",
    "upvotes": 22
  },
  {
    "userId": "REPLACE_WITH_ACTUAL_USER_ID",
    "name": "Sagar",
    "issueTitle": "Broken Streetlight in Kurnool",
    "description": "This is a demo report for a broken streetlight observed in Kurnool. Please attend to this.",
    "category": "Broken Streetlight",
    "status": "resolved",
    "lat": 15.851632988048667,
    "lng": 78.05275185368484,
    "address": "{\"street\":\"42th Street\",\"city\":\"Kurnool\",\"district\":\"Kurnool\",\"state\":\"Andhra Pradesh\",\"country\":\"India\",\"postalCode\":\"500000\"}",
    "state": "Andhra Pradesh",
    "district": "Kurnool",
    "images": [],
    "imageId": "demo_image_id",
    "$createdAt": "2025-12-04T10:51:40.000Z",
    "upvotes": 11
  },
  {
    "userId": "REPLACE_WITH_ACTUAL_USER_ID",
    "name": "Sagar",
    "issueTitle": "Drainage Blockage in Kurnool",
    "description": "This is a demo report for a drainage blockage observed in Kurnool. Please attend to this.",
    "category": "Drainage Blockage",
    "status": "resolved",
    "lat": 15.847981890858033,
    "lng": 78.08586498779265,
    "address": "{\"street\":\"28th Street\",\"city\":\"Kurnool\",\"district\":\"Kurnool\",\"state\":\"Andhra Pradesh\",\"country\":\"India\",\"postalCode\":\"500000\"}",
    "state": "Andhra Pradesh",
    "district": "Kurnool",
    "images": [],
    "imageId": "demo_image_id",
    "$createdAt": "2025-12-04T10:51:40.000Z",
    "upvotes": 40
  },
  {
    "userId": "REPLACE_WITH_ACTUAL_USER_ID",
    "name": "Sagar",
    "issueTitle": "Garbage Dump in Kurnool",
    "description": "This is a demo report for a garbage dump observed in Kurnool. Please attend to this.",
    "category": "Garbage Dump",
    "status": "in-progress",
    "lat": 15.830584107076465,
    "lng": 78.01301423103222,
    "address": "{\"street\":\"66th Street\",\"city\":\"Kurnool\",\"district\":\"Kurnool\",\"state\":\"Andhra Pradesh\",\"country\":\"India\",\"postalCode\":\"500000\"}",
    "state": "Andhra Pradesh",
    "district": "Kurnool",
    "images": [],
    "imageId": "demo_image_id",
    "$createdAt": "2025-12-04T10:51:40.000Z",
    "upvotes": 15
  },
  {
    "userId": "REPLACE_WITH_ACTUAL_USER_ID",
    "name": "Sagar",
    "issueTitle": "Stray Animal Menace in Kurnool",
    "description": "This is a demo report for a stray animal menace observed in Kurnool. Please attend to this.",
    "category": "Stray Animal Menace",
    "status": "resolved",
    "lat": 15.833875147265735,
    "lng": 78.0110725959192,
    "address": "{\"street\":\"55th Street\",\"city\":\"Kurnool\",\"district\":\"Kurnool\",\"state\":\"Andhra Pradesh\",\"country\":\"India\",\"postalCode\":\"500000\"}",
    "state": "Andhra Pradesh",
    "district": "Kurnool",
    "images": [],
    "imageId": "demo_image_id",
    "$createdAt": "2025-12-04T10:51:40.000Z",
    "upvotes": 12
  },
  {
    "userId": "REPLACE_WITH_ACTUAL_USER_ID",
    "name": "Sagar",
    "issueTitle": "Stray Animal Menace in Kurnool",
    "description": "This is a demo report for a stray animal menace observed in Kurnool. Please attend to this.",
    "category": "Stray Animal Menace",
    "status": "resolved",
    "lat": 15.790090126104625,
    "lng": 78.01641240355491,
    "address": "{\"street\":\"83th Street\",\"city\":\"Kurnool\",\"district\":\"Kurnool\",\"state\":\"Andhra Pradesh\",\"country\":\"India\",\"postalCode\":\"500000\"}",
    "state": "Andhra Pradesh",
    "district": "Kurnool",
    "images": [],
    "imageId": "demo_image_id",
    "$createdAt": "2025-12-04T10:51:40.000Z",
    "upvotes": 8
  },
  {
    "userId": "REPLACE_WITH_ACTUAL_USER_ID",
    "name": "Sagar",
    "issueTitle": "Drainage Blockage in Kurnool",
    "description": "This is a demo report for a drainage blockage observed in Kurnool. Please attend to this.",
    "category": "Drainage Blockage",
    "status": "in-progress",
    "lat": 15.789763733605376,
    "lng": 78.00171010323918,
    "address": "{\"street\":\"27th Street\",\"city\":\"Kurnool\",\"district\":\"Kurnool\",\"state\":\"Andhra Pradesh\",\"country\":\"India\",\"postalCode\":\"500000\"}",
    "state": "Andhra Pradesh",
    "district": "Kurnool",
    "images": [],
    "imageId": "demo_image_id",
    "$createdAt": "2025-12-04T10:51:40.000Z",
    "upvotes": 42
  },
  {
    "userId": "REPLACE_WITH_ACTUAL_USER_ID",
    "name": "Sagar",
    "issueTitle": "Garbage Dump in Kurnool",
    "description": "This is a demo report for a garbage dump observed in Kurnool. Please attend to this.",
    "category": "Garbage Dump",
    "status": "in-progress",
    "lat": 15.857133092763977,
    "lng": 78.00830135271543,
    "address": "{\"street\":\"12th Street\",\"city\":\"Kurnool\",\"district\":\"Kurnool\",\"state\":\"Andhra Pradesh\",\"country\":\"India\",\"postalCode\":\"500000\"}",
    "state": "Andhra Pradesh",
    "district": "Kurnool",
    "images": [],
    "imageId": "demo_image_id",
    "$createdAt": "2025-12-04T10:51:40.000Z",
    "upvotes": 5
  },
  {
    "userId": "REPLACE_WITH_ACTUAL_USER_ID",
    "name": "Sagar",
    "issueTitle": "Stray Animal Menace in Kurnool",
    "description": "This is a demo report for a stray animal menace observed in Kurnool. Please attend to this.",
    "category": "Stray Animal Menace",
    "status": "in-progress",
    "lat": 15.862529751061466,
    "lng": 78.02887670359581,
    "address": "{\"street\":\"65th Street\",\"city\":\"Kurnool\",\"district\":\"Kurnool\",\"state\":\"Andhra Pradesh\",\"country\":\"India\",\"postalCode\":\"500000\"}",
    "state": "Andhra Pradesh",
    "district": "Kurnool",
    "images": [],
    "imageId": "demo_image_id",
    "$createdAt": "2025-12-04T10:51:40.000Z",
    "upvotes": 47
  },
  {
    "userId": "REPLACE_WITH_ACTUAL_USER_ID",
    "name": "Sagar",
    "issueTitle": "Pothole in Kurnool",
    "description": "This is a demo report for a pothole observed in Kurnool. Please attend to this.",
    "category": "Pothole",
    "status": "in-progress",
    "lat": 15.788095607114634,
    "lng": 78.07968770044096,
    "address": "{\"street\":\"5th Street\",\"city\":\"Kurnool\",\"district\":\"Kurnool\",\"state\":\"Andhra Pradesh\",\"country\":\"India\",\"postalCode\":\"500000\"}",
    "state": "Andhra Pradesh",
    "district": "Kurnool",
    "images": [],
    "imageId": "demo_image_id",
    "$createdAt": "2025-12-04T10:51:40.000Z",
    "upvotes": 28
  },
  {
    "userId": "REPLACE_WITH_ACTUAL_USER_ID",
    "name": "Sagar",
    "issueTitle": "Pothole in Kurnool",
    "description": "This is a demo report for a pothole observed in Kurnool. Please attend to this.",
    "category": "Pothole",
    "status": "in-progress",
    "lat": 15.855431177521098,
    "lng": 78.04262308644816,
    "address": "{\"street\":\"63th Street\",\"city\":\"Kurnool\",\"district\":\"Kurnool\",\"state\":\"Andhra Pradesh\",\"country\":\"India\",\"postalCode\":\"500000\"}",
    "state": "Andhra Pradesh",
    "district": "Kurnool",
    "images": [],
    "imageId": "demo_image_id",
    "$createdAt": "2025-12-04T10:51:40.000Z",
    "upvotes": 41
  },
  {
    "userId": "REPLACE_WITH_ACTUAL_USER_ID",
    "name": "Sagar",
    "issueTitle": "Illegal Parking in Kurnool",
    "description": "This is a demo report for a illegal parking observed in Kurnool. Please attend to this.",
    "category": "Illegal Parking",
    "status": "resolved",
    "lat": 15.808747769479151,
    "lng": 78.06058114692074,
    "address": "{\"street\":\"78th Street\",\"city\":\"Kurnool\",\"district\":\"Kurnool\",\"state\":\"Andhra Pradesh\",\"country\":\"India\",\"postalCode\":\"500000\"}",
    "state": "Andhra Pradesh",
    "district": "Kurnool",
    "images": [],
    "imageId": "demo_image_id",
    "$createdAt": "2025-12-04T10:51:40.000Z",
    "upvotes": 45
  },
  {
    "userId": "REPLACE_WITH_ACTUAL_USER_ID",
    "name": "Sagar",
    "issueTitle": "Broken Streetlight in Kurnool",
    "description": "This is a demo report for a broken streetlight observed in Kurnool. Please attend to this.",
    "category": "Broken Streetlight",
    "status": "in-progress",
    "lat": 15.79826724435609,
    "lng": 78.06295841771306,
    "address": "{\"street\":\"63th Street\",\"city\":\"Kurnool\",\"district\":\"Kurnool\",\"state\":\"Andhra Pradesh\",\"country\":\"India\",\"postalCode\":\"500000\"}",
    "state": "Andhra Pradesh",
    "district": "Kurnool",
    "images": [],
    "imageId": "demo_image_id",
    "$createdAt": "2025-12-04T10:51:40.000Z",
    "upvotes": 29
  },
  {
    "userId": "REPLACE_WITH_ACTUAL_USER_ID",
    "name": "Sagar",
    "issueTitle": "Pothole in Tirupati",
    "description": "This is a demo report for a pothole observed in Tirupati. Please attend to this.",
    "category": "Pothole",
    "status": "open",
    "lat": 13.626180570253956,
    "lng": 79.37300513548972,
    "address": "{\"street\":\"93th Street\",\"city\":\"Tirupati\",\"district\":\"Tirupati\",\"state\":\"Andhra Pradesh\",\"country\":\"India\",\"postalCode\":\"500000\"}",
    "state": "Andhra Pradesh",
    "district": "Tirupati",
    "images": [],
    "imageId": "demo_image_id",
    "$createdAt": "2025-12-04T10:51:40.000Z",
    "upvotes": 29
  },
  {
    "userId": "REPLACE_WITH_ACTUAL_USER_ID",
    "name": "Sagar",
    "issueTitle": "Garbage Dump in Tirupati",
    "description": "This is a demo report for a garbage dump observed in Tirupati. Please attend to this.",
    "category": "Garbage Dump",
    "status": "open",
    "lat": 13.626486183596707,
    "lng": 79.39046406254674,
    "address": "{\"street\":\"7th Street\",\"city\":\"Tirupati\",\"district\":\"Tirupati\",\"state\":\"Andhra Pradesh\",\"country\":\"India\",\"postalCode\":\"500000\"}",
    "state": "Andhra Pradesh",
    "district": "Tirupati",
    "images": [],
    "imageId": "demo_image_id",
    "$createdAt": "2025-12-04T10:51:40.000Z",
    "upvotes": 10
  },
  {
    "userId": "REPLACE_WITH_ACTUAL_USER_ID",
    "name": "Sagar",
    "issueTitle": "Garbage Dump in Tirupati",
    "description": "This is a demo report for a garbage dump observed in Tirupati. Please attend to this.",
    "category": "Garbage Dump",
    "status": "resolved",
    "lat": 13.655061662029668,
    "lng": 79.4043415952743,
    "address": "{\"street\":\"30th Street\",\"city\":\"Tirupati\",\"district\":\"Tirupati\",\"state\":\"Andhra Pradesh\",\"country\":\"India\",\"postalCode\":\"500000\"}",
    "state": "Andhra Pradesh",
    "district": "Tirupati",
    "images": [],
    "imageId": "demo_image_id",
    "$createdAt": "2025-12-04T10:51:40.000Z",
    "upvotes": 36
  },
  {
    "userId": "REPLACE_WITH_ACTUAL_USER_ID",
    "name": "Sagar",
    "issueTitle": "Pothole in Tirupati",
    "description": "This is a demo report for a pothole observed in Tirupati. Please attend to this.",
    "category": "Pothole",
    "status": "resolved",
    "lat": 13.635133737383077,
    "lng": 79.392550776154,
    "address": "{\"street\":\"10th Street\",\"city\":\"Tirupati\",\"district\":\"Tirupati\",\"state\":\"Andhra Pradesh\",\"country\":\"India\",\"postalCode\":\"500000\"}",
    "state": "Andhra Pradesh",
    "district": "Tirupati",
    "images": [],
    "imageId": "demo_image_id",
    "$createdAt": "2025-12-04T10:51:40.000Z",
    "upvotes": 6
  },
  {
    "userId": "REPLACE_WITH_ACTUAL_USER_ID",
    "name": "Sagar",
    "issueTitle": "Stray Animal Menace in Tirupati",
    "description": "This is a demo report for a stray animal menace observed in Tirupati. Please attend to this.",
    "category": "Stray Animal Menace",
    "status": "in-progress",
    "lat": 13.60406996685023,
    "lng": 79.46046704771368,
    "address": "{\"street\":\"22th Street\",\"city\":\"Tirupati\",\"district\":\"Tirupati\",\"state\":\"Andhra Pradesh\",\"country\":\"India\",\"postalCode\":\"500000\"}",
    "state": "Andhra Pradesh",
    "district": "Tirupati",
    "images": [],
    "imageId": "demo_image_id",
    "$createdAt": "2025-12-04T10:51:40.000Z",
    "upvotes": 39
  },
  {
    "userId": "REPLACE_WITH_ACTUAL_USER_ID",
    "name": "Sagar",
    "issueTitle": "Drainage Blockage in Tirupati",
    "description": "This is a demo report for a drainage blockage observed in Tirupati. Please attend to this.",
    "category": "Drainage Blockage",
    "status": "resolved",
    "lat": 13.650099579957034,
    "lng": 79.45176820059717,
    "address": "{\"street\":\"31th Street\",\"city\":\"Tirupati\",\"district\":\"Tirupati\",\"state\":\"Andhra Pradesh\",\"country\":\"India\",\"postalCode\":\"500000\"}",
    "state": "Andhra Pradesh",
    "district": "Tirupati",
    "images": [],
    "imageId": "demo_image_id",
    "$createdAt": "2025-12-04T10:51:40.000Z",
    "upvotes": 47
  },
  {
    "userId": "REPLACE_WITH_ACTUAL_USER_ID",
    "name": "Sagar",
    "issueTitle": "Drainage Blockage in Tirupati",
    "description": "This is a demo report for a drainage blockage observed in Tirupati. Please attend to this.",
    "category": "Drainage Blockage",
    "status": "open",
    "lat": 13.669052664816457,
    "lng": 79.38146291716451,
    "address": "{\"street\":\"98th Street\",\"city\":\"Tirupati\",\"district\":\"Tirupati\",\"state\":\"Andhra Pradesh\",\"country\":\"India\",\"postalCode\":\"500000\"}",
    "state": "Andhra Pradesh",
    "district": "Tirupati",
    "images": [],
    "imageId": "demo_image_id",
    "$createdAt": "2025-12-04T10:51:40.000Z",
    "upvotes": 12
  },
  {
    "userId": "REPLACE_WITH_ACTUAL_USER_ID",
    "name": "Sagar",
    "issueTitle": "Stray Animal Menace in Tirupati",
    "description": "This is a demo report for a stray animal menace observed in Tirupati. Please attend to this.",
    "category": "Stray Animal Menace",
    "status": "resolved",
    "lat": 13.644414693129214,
    "lng": 79.43507451925693,
    "address": "{\"street\":\"79th Street\",\"city\":\"Tirupati\",\"district\":\"Tirupati\",\"state\":\"Andhra Pradesh\",\"country\":\"India\",\"postalCode\":\"500000\"}",
    "state": "Andhra Pradesh",
    "district": "Tirupati",
    "images": [],
    "imageId": "demo_image_id",
    "$createdAt": "2025-12-04T10:51:40.000Z",
    "upvotes": 32
  },
  {
    "userId": "REPLACE_WITH_ACTUAL_USER_ID",
    "name": "Sagar",
    "issueTitle": "Illegal Parking in Tirupati",
    "description": "This is a demo report for a illegal parking observed in Tirupati. Please attend to this.",
    "category": "Illegal Parking",
    "status": "in-progress",
    "lat": 13.589877671711864,
    "lng": 79.46529895118768,
    "address": "{\"street\":\"36th Street\",\"city\":\"Tirupati\",\"district\":\"Tirupati\",\"state\":\"Andhra Pradesh\",\"country\":\"India\",\"postalCode\":\"500000\"}",
    "state": "Andhra Pradesh",
    "district": "Tirupati",
    "images": [],
    "imageId": "demo_image_id",
    "$createdAt": "2025-12-04T10:51:40.000Z",
    "upvotes": 37
  },
  {
    "userId": "REPLACE_WITH_ACTUAL_USER_ID",
    "name": "Sagar",
    "issueTitle": "Illegal Parking in Tirupati",
    "description": "This is a demo report for a illegal parking observed in Tirupati. Please attend to this.",
    "category": "Illegal Parking",
    "status": "resolved",
    "lat": 13.642851357028965,
    "lng": 79.40466643576535,
    "address": "{\"street\":\"63th Street\",\"city\":\"Tirupati\",\"district\":\"Tirupati\",\"state\":\"Andhra Pradesh\",\"country\":\"India\",\"postalCode\":\"500000\"}",
    "state": "Andhra Pradesh",
    "district": "Tirupati",
    "images": [],
    "imageId": "demo_image_id",
    "$createdAt": "2025-12-04T10:51:40.000Z",
    "upvotes": 45
  },
  {
    "userId": "REPLACE_WITH_ACTUAL_USER_ID",
    "name": "Sagar",
    "issueTitle": "Illegal Parking in Tirupati",
    "description": "This is a demo report for a illegal parking observed in Tirupati. Please attend to this.",
    "category": "Illegal Parking",
    "status": "resolved",
    "lat": 13.589262597829066,
    "lng": 79.44031419765484,
    "address": "{\"street\":\"16th Street\",\"city\":\"Tirupati\",\"district\":\"Tirupati\",\"state\":\"Andhra Pradesh\",\"country\":\"India\",\"postalCode\":\"500000\"}",
    "state": "Andhra Pradesh",
    "district": "Tirupati",
    "images": [],
    "imageId": "demo_image_id",
    "$createdAt": "2025-12-04T10:51:40.000Z",
    "upvotes": 39
  },
  {
    "userId": "REPLACE_WITH_ACTUAL_USER_ID",
    "name": "Sagar",
    "issueTitle": "Stray Animal Menace in Tirupati",
    "description": "This is a demo report for a stray animal menace observed in Tirupati. Please attend to this.",
    "category": "Stray Animal Menace",
    "status": "open",
    "lat": 13.633349901576446,
    "lng": 79.3696367502122,
    "address": "{\"street\":\"22th Street\",\"city\":\"Tirupati\",\"district\":\"Tirupati\",\"state\":\"Andhra Pradesh\",\"country\":\"India\",\"postalCode\":\"500000\"}",
    "state": "Andhra Pradesh",
    "district": "Tirupati",
    "images": [],
    "imageId": "demo_image_id",
    "$createdAt": "2025-12-04T10:51:40.000Z",
    "upvotes": 29
  },
  {
    "userId": "REPLACE_WITH_ACTUAL_USER_ID",
    "name": "Sagar",
    "issueTitle": "Drainage Blockage in Tirupati",
    "description": "This is a demo report for a drainage blockage observed in Tirupati. Please attend to this.",
    "category": "Drainage Blockage",
    "status": "open",
    "lat": 13.676564806205196,
    "lng": 79.38643952663163,
    "address": "{\"street\":\"98th Street\",\"city\":\"Tirupati\",\"district\":\"Tirupati\",\"state\":\"Andhra Pradesh\",\"country\":\"India\",\"postalCode\":\"500000\"}",
    "state": "Andhra Pradesh",
    "district": "Tirupati",
    "images": [],
    "imageId": "demo_image_id",
    "$createdAt": "2025-12-04T10:51:40.000Z",
    "upvotes": 39
  },
  {
    "userId": "REPLACE_WITH_ACTUAL_USER_ID",
    "name": "Sagar",
    "issueTitle": "Illegal Parking in Tirupati",
    "description": "This is a demo report for a illegal parking observed in Tirupati. Please attend to this.",
    "category": "Illegal Parking",
    "status": "open",
    "lat": 13.579396668934065,
    "lng": 79.43537916088614,
    "address": "{\"street\":\"99th Street\",\"city\":\"Tirupati\",\"district\":\"Tirupati\",\"state\":\"Andhra Pradesh\",\"country\":\"India\",\"postalCode\":\"500000\"}",
    "state": "Andhra Pradesh",
    "district": "Tirupati",
    "images": [],
    "imageId": "demo_image_id",
    "$createdAt": "2025-12-04T10:51:40.000Z",
    "upvotes": 25
  },
  {
    "userId": "REPLACE_WITH_ACTUAL_USER_ID",
    "name": "Sagar",
    "issueTitle": "Garbage Dump in Tirupati",
    "description": "This is a demo report for a garbage dump observed in Tirupati. Please attend to this.",
    "category": "Garbage Dump",
    "status": "resolved",
    "lat": 13.621545948660074,
    "lng": 79.42076510372372,
    "address": "{\"street\":\"6th Street\",\"city\":\"Tirupati\",\"district\":\"Tirupati\",\"state\":\"Andhra Pradesh\",\"country\":\"India\",\"postalCode\":\"500000\"}",
    "state": "Andhra Pradesh",
    "district": "Tirupati",
    "images": [],
    "imageId": "demo_image_id",
    "$createdAt": "2025-12-04T10:51:40.000Z",
    "upvotes": 43
  },
  {
    "userId": "REPLACE_WITH_ACTUAL_USER_ID",
    "name": "Sagar",
    "issueTitle": "Water Leakage in Tirupati",
    "description": "This is a demo report for a water leakage observed in Tirupati. Please attend to this.",
    "category": "Water Leakage",
    "status": "resolved",
    "lat": 13.652984397457978,
    "lng": 79.40573657439013,
    "address": "{\"street\":\"23th Street\",\"city\":\"Tirupati\",\"district\":\"Tirupati\",\"state\":\"Andhra Pradesh\",\"country\":\"India\",\"postalCode\":\"500000\"}",
    "state": "Andhra Pradesh",
    "district": "Tirupati",
    "images": [],
    "imageId": "demo_image_id",
    "$createdAt": "2025-12-04T10:51:40.000Z",
    "upvotes": 43
  },
  {
    "userId": "REPLACE_WITH_ACTUAL_USER_ID",
    "name": "Sagar",
    "issueTitle": "Pothole in Tirupati",
    "description": "This is a demo report for a pothole observed in Tirupati. Please attend to this.",
    "category": "Pothole",
    "status": "open",
    "lat": 13.620997329441183,
    "lng": 79.4116754961149,
    "address": "{\"street\":\"30th Street\",\"city\":\"Tirupati\",\"district\":\"Tirupati\",\"state\":\"Andhra Pradesh\",\"country\":\"India\",\"postalCode\":\"500000\"}",
    "state": "Andhra Pradesh",
    "district": "Tirupati",
    "images": [],
    "imageId": "demo_image_id",
    "$createdAt": "2025-12-04T10:51:40.000Z",
    "upvotes": 25
  },
  {
    "userId": "REPLACE_WITH_ACTUAL_USER_ID",
    "name": "Sagar",
    "issueTitle": "Water Leakage in Tirupati",
    "description": "This is a demo report for a water leakage observed in Tirupati. Please attend to this.",
    "category": "Water Leakage",
    "status": "open",
    "lat": 13.586426019371336,
    "lng": 79.40108622894063,
    "address": "{\"street\":\"74th Street\",\"city\":\"Tirupati\",\"district\":\"Tirupati\",\"state\":\"Andhra Pradesh\",\"country\":\"India\",\"postalCode\":\"500000\"}",
    "state": "Andhra Pradesh",
    "district": "Tirupati",
    "images": [],
    "imageId": "demo_image_id",
    "$createdAt": "2025-12-04T10:51:40.000Z",
    "upvotes": 4
  },
  {
    "userId": "REPLACE_WITH_ACTUAL_USER_ID",
    "name": "Sagar",
    "issueTitle": "Pothole in Tirupati",
    "description": "This is a demo report for a pothole observed in Tirupati. Please attend to this.",
    "category": "Pothole",
    "status": "in-progress",
    "lat": 13.580530283272045,
    "lng": 79.39944343693807,
    "address": "{\"street\":\"9th Street\",\"city\":\"Tirupati\",\"district\":\"Tirupati\",\"state\":\"Andhra Pradesh\",\"country\":\"India\",\"postalCode\":\"500000\"}",
    "state": "Andhra Pradesh",
    "district": "Tirupati",
    "images": [],
    "imageId": "demo_image_id",
    "$createdAt": "2025-12-04T10:51:40.000Z",
    "upvotes": 26
  },
  {
    "userId": "REPLACE_WITH_ACTUAL_USER_ID",
    "name": "Sagar",
    "issueTitle": "Garbage Dump in Tirupati",
    "description": "This is a demo report for a garbage dump observed in Tirupati. Please attend to this.",
    "category": "Garbage Dump",
    "status": "in-progress",
    "lat": 13.581541713454078,
    "lng": 79.3953333914262,
    "address": "{\"street\":\"82th Street\",\"city\":\"Tirupati\",\"district\":\"Tirupati\",\"state\":\"Andhra Pradesh\",\"country\":\"India\",\"postalCode\":\"500000\"}",
    "state": "Andhra Pradesh",
    "district": "Tirupati",
    "images": [],
    "imageId": "demo_image_id",
    "$createdAt": "2025-12-04T10:51:40.000Z",
    "upvotes": 15
  },
  {
    "userId": "REPLACE_WITH_ACTUAL_USER_ID",
    "name": "Sagar",
    "issueTitle": "Illegal Parking in Anantapur",
    "description": "This is a demo report for a illegal parking observed in Anantapur. Please attend to this.",
    "category": "Illegal Parking",
    "status": "in-progress",
    "lat": 14.720252506231752,
    "lng": 77.57536604639441,
    "address": "{\"street\":\"67th Street\",\"city\":\"Anantapur\",\"district\":\"Anantapur\",\"state\":\"Andhra Pradesh\",\"country\":\"India\",\"postalCode\":\"500000\"}",
    "state": "Andhra Pradesh",
    "district": "Anantapur",
    "images": [],
    "imageId": "demo_image_id",
    "$createdAt": "2025-12-04T10:51:40.000Z",
    "upvotes": 26
  },
  {
    "userId": "REPLACE_WITH_ACTUAL_USER_ID",
    "name": "Sagar",
    "issueTitle": "Stray Animal Menace in Anantapur",
    "description": "This is a demo report for a stray animal menace observed in Anantapur. Please attend to this.",
    "category": "Stray Animal Menace",
    "status": "in-progress",
    "lat": 14.663042621205394,
    "lng": 77.62814986293074,
    "address": "{\"street\":\"25th Street\",\"city\":\"Anantapur\",\"district\":\"Anantapur\",\"state\":\"Andhra Pradesh\",\"country\":\"India\",\"postalCode\":\"500000\"}",
    "state": "Andhra Pradesh",
    "district": "Anantapur",
    "images": [],
    "imageId": "demo_image_id",
    "$createdAt": "2025-12-04T10:51:40.000Z",
    "upvotes": 32
  },
  {
    "userId": "REPLACE_WITH_ACTUAL_USER_ID",
    "name": "Sagar",
    "issueTitle": "Pothole in Anantapur",
    "description": "This is a demo report for a pothole observed in Anantapur. Please attend to this.",
    "category": "Pothole",
    "status": "resolved",
    "lat": 14.686314348957517,
    "lng": 77.60151116046141,
    "address": "{\"street\":\"34th Street\",\"city\":\"Anantapur\",\"district\":\"Anantapur\",\"state\":\"Andhra Pradesh\",\"country\":\"India\",\"postalCode\":\"500000\"}",
    "state": "Andhra Pradesh",
    "district": "Anantapur",
    "images": [],
    "imageId": "demo_image_id",
    "$createdAt": "2025-12-04T10:51:40.000Z",
    "upvotes": 38
  },
  {
    "userId": "REPLACE_WITH_ACTUAL_USER_ID",
    "name": "Sagar",
    "issueTitle": "Water Leakage in Anantapur",
    "description": "This is a demo report for a water leakage observed in Anantapur. Please attend to this.",
    "category": "Water Leakage",
    "status": "open",
    "lat": 14.670572578221151,
    "lng": 77.57198657063547,
    "address": "{\"street\":\"47th Street\",\"city\":\"Anantapur\",\"district\":\"Anantapur\",\"state\":\"Andhra Pradesh\",\"country\":\"India\",\"postalCode\":\"500000\"}",
    "state": "Andhra Pradesh",
    "district": "Anantapur",
    "images": [],
    "imageId": "demo_image_id",
    "$createdAt": "2025-12-04T10:51:40.000Z",
    "upvotes": 29
  },
  {
    "userId": "REPLACE_WITH_ACTUAL_USER_ID",
    "name": "Sagar",
    "issueTitle": "Drainage Blockage in Anantapur",
    "description": "This is a demo report for a drainage blockage observed in Anantapur. Please attend to this.",
    "category": "Drainage Blockage",
    "status": "in-progress",
    "lat": 14.68743508252187,
    "lng": 77.55626227532606,
    "address": "{\"street\":\"56th Street\",\"city\":\"Anantapur\",\"district\":\"Anantapur\",\"state\":\"Andhra Pradesh\",\"country\":\"India\",\"postalCode\":\"500000\"}",
    "state": "Andhra Pradesh",
    "district": "Anantapur",
    "images": [],
    "imageId": "demo_image_id",
    "$createdAt": "2025-12-04T10:51:40.000Z",
    "upvotes": 31
  },
  {
    "userId": "REPLACE_WITH_ACTUAL_USER_ID",
    "name": "Sagar",
    "issueTitle": "Stray Animal Menace in Anantapur",
    "description": "This is a demo report for a stray animal menace observed in Anantapur. Please attend to this.",
    "category": "Stray Animal Menace",
    "status": "in-progress",
    "lat": 14.657674639258468,
    "lng": 77.59620231677025,
    "address": "{\"street\":\"21th Street\",\"city\":\"Anantapur\",\"district\":\"Anantapur\",\"state\":\"Andhra Pradesh\",\"country\":\"India\",\"postalCode\":\"500000\"}",
    "state": "Andhra Pradesh",
    "district": "Anantapur",
    "images": [],
    "imageId": "demo_image_id",
    "$createdAt": "2025-12-04T10:51:40.000Z",
    "upvotes": 18
  },
  {
    "userId": "REPLACE_WITH_ACTUAL_USER_ID",
    "name": "Sagar",
    "issueTitle": "Pothole in Anantapur",
    "description": "This is a demo report for a pothole observed in Anantapur. Please attend to this.",
    "category": "Pothole",
    "status": "in-progress",
    "lat": 14.684756432634263,
    "lng": 77.64982727526974,
    "address": "{\"street\":\"2th Street\",\"city\":\"Anantapur\",\"district\":\"Anantapur\",\"state\":\"Andhra Pradesh\",\"country\":\"India\",\"postalCode\":\"500000\"}",
    "state": "Andhra Pradesh",
    "district": "Anantapur",
    "images": [],
    "imageId": "demo_image_id",
    "$createdAt": "2025-12-04T10:51:40.000Z",
    "upvotes": 6
  },
  {
    "userId": "REPLACE_WITH_ACTUAL_USER_ID",
    "name": "Sagar",
    "issueTitle": "Drainage Blockage in Anantapur",
    "description": "This is a demo report for a drainage blockage observed in Anantapur. Please attend to this.",
    "category": "Drainage Blockage",
    "status": "resolved",
    "lat": 14.632914162860981,
    "lng": 77.60063894124116,
    "address": "{\"street\":\"70th Street\",\"city\":\"Anantapur\",\"district\":\"Anantapur\",\"state\":\"Andhra Pradesh\",\"country\":\"India\",\"postalCode\":\"500000\"}",
    "state": "Andhra Pradesh",
    "district": "Anantapur",
    "images": [],
    "imageId": "demo_image_id",
    "$createdAt": "2025-12-04T10:51:40.000Z",
    "upvotes": 9
  },
  {
    "userId": "REPLACE_WITH_ACTUAL_USER_ID",
    "name": "Sagar",
    "issueTitle": "Water Leakage in Anantapur",
    "description": "This is a demo report for a water leakage observed in Anantapur. Please attend to this.",
    "category": "Water Leakage",
    "status": "in-progress",
    "lat": 14.69520291298398,
    "lng": 77.60520583003358,
    "address": "{\"street\":\"89th Street\",\"city\":\"Anantapur\",\"district\":\"Anantapur\",\"state\":\"Andhra Pradesh\",\"country\":\"India\",\"postalCode\":\"500000\"}",
    "state": "Andhra Pradesh",
    "district": "Anantapur",
    "images": [],
    "imageId": "demo_image_id",
    "$createdAt": "2025-12-04T10:51:40.000Z",
    "upvotes": 8
  },
  {
    "userId": "REPLACE_WITH_ACTUAL_USER_ID",
    "name": "Sagar",
    "issueTitle": "Illegal Parking in Anantapur",
    "description": "This is a demo report for a illegal parking observed in Anantapur. Please attend to this.",
    "category": "Illegal Parking",
    "status": "resolved",
    "lat": 14.641421160475526,
    "lng": 77.58066593574121,
    "address": "{\"street\":\"0th Street\",\"city\":\"Anantapur\",\"district\":\"Anantapur\",\"state\":\"Andhra Pradesh\",\"country\":\"India\",\"postalCode\":\"500000\"}",
    "state": "Andhra Pradesh",
    "district": "Anantapur",
    "images": [],
    "imageId": "demo_image_id",
    "$createdAt": "2025-12-04T10:51:40.000Z",
    "upvotes": 42
  },
  {
    "userId": "REPLACE_WITH_ACTUAL_USER_ID",
    "name": "Sagar",
    "issueTitle": "Garbage Dump in Anantapur",
    "description": "This is a demo report for a garbage dump observed in Anantapur. Please attend to this.",
    "category": "Garbage Dump",
    "status": "open",
    "lat": 14.670613654670369,
    "lng": 77.60582434966372,
    "address": "{\"street\":\"70th Street\",\"city\":\"Anantapur\",\"district\":\"Anantapur\",\"state\":\"Andhra Pradesh\",\"country\":\"India\",\"postalCode\":\"500000\"}",
    "state": "Andhra Pradesh",
    "district": "Anantapur",
    "images": [],
    "imageId": "demo_image_id",
    "$createdAt": "2025-12-04T10:51:40.000Z",
    "upvotes": 27
  },
  {
    "userId": "REPLACE_WITH_ACTUAL_USER_ID",
    "name": "Sagar",
    "issueTitle": "Illegal Parking in Anantapur",
    "description": "This is a demo report for a illegal parking observed in Anantapur. Please attend to this.",
    "category": "Illegal Parking",
    "status": "resolved",
    "lat": 14.706543558301203,
    "lng": 77.62693614493574,
    "address": "{\"street\":\"98th Street\",\"city\":\"Anantapur\",\"district\":\"Anantapur\",\"state\":\"Andhra Pradesh\",\"country\":\"India\",\"postalCode\":\"500000\"}",
    "state": "Andhra Pradesh",
    "district": "Anantapur",
    "images": [],
    "imageId": "demo_image_id",
    "$createdAt": "2025-12-04T10:51:40.000Z",
    "upvotes": 0
  },
  {
    "userId": "REPLACE_WITH_ACTUAL_USER_ID",
    "name": "Sagar",
    "issueTitle": "Stray Animal Menace in Anantapur",
    "description": "This is a demo report for a stray animal menace observed in Anantapur. Please attend to this.",
    "category": "Stray Animal Menace",
    "status": "open",
    "lat": 14.692709700305132,
    "lng": 77.5946957654889,
    "address": "{\"street\":\"72th Street\",\"city\":\"Anantapur\",\"district\":\"Anantapur\",\"state\":\"Andhra Pradesh\",\"country\":\"India\",\"postalCode\":\"500000\"}",
    "state": "Andhra Pradesh",
    "district": "Anantapur",
    "images": [],
    "imageId": "demo_image_id",
    "$createdAt": "2025-12-04T10:51:40.000Z",
    "upvotes": 11
  },
  {
    "userId": "REPLACE_WITH_ACTUAL_USER_ID",
    "name": "Sagar",
    "issueTitle": "Garbage Dump in Anantapur",
    "description": "This is a demo report for a garbage dump observed in Anantapur. Please attend to this.",
    "category": "Garbage Dump",
    "status": "in-progress",
    "lat": 14.673487137115577,
    "lng": 77.59802319773863,
    "address": "{\"street\":\"35th Street\",\"city\":\"Anantapur\",\"district\":\"Anantapur\",\"state\":\"Andhra Pradesh\",\"country\":\"India\",\"postalCode\":\"500000\"}",
    "state": "Andhra Pradesh",
    "district": "Anantapur",
    "images": [],
    "imageId": "demo_image_id",
    "$createdAt": "2025-12-04T10:51:40.000Z",
    "upvotes": 43
  },
  {
    "userId": "REPLACE_WITH_ACTUAL_USER_ID",
    "name": "Sagar",
    "issueTitle": "Water Leakage in Anantapur",
    "description": "This is a demo report for a water leakage observed in Anantapur. Please attend to this.",
    "category": "Water Leakage",
    "status": "open",
    "lat": 14.717466489292251,
    "lng": 77.57580925134717,
    "address": "{\"street\":\"5th Street\",\"city\":\"Anantapur\",\"district\":\"Anantapur\",\"state\":\"Andhra Pradesh\",\"country\":\"India\",\"postalCode\":\"500000\"}",
    "state": "Andhra Pradesh",
    "district": "Anantapur",
    "images": [],
    "imageId": "demo_image_id",
    "$createdAt": "2025-12-04T10:51:40.000Z",
    "upvotes": 8
  },
  {
    "userId": "REPLACE_WITH_ACTUAL_USER_ID",
    "name": "Sagar",
    "issueTitle": "Illegal Parking in Anantapur",
    "description": "This is a demo report for a illegal parking observed in Anantapur. Please attend to this.",
    "category": "Illegal Parking",
    "status": "resolved",
    "lat": 14.660551433229267,
    "lng": 77.55675580577628,
    "address": "{\"street\":\"91th Street\",\"city\":\"Anantapur\",\"district\":\"Anantapur\",\"state\":\"Andhra Pradesh\",\"country\":\"India\",\"postalCode\":\"500000\"}",
    "state": "Andhra Pradesh",
    "district": "Anantapur",
    "images": [],
    "imageId": "demo_image_id",
    "$createdAt": "2025-12-04T10:51:40.000Z",
    "upvotes": 12
  },
  {
    "userId": "REPLACE_WITH_ACTUAL_USER_ID",
    "name": "Sagar",
    "issueTitle": "Garbage Dump in Anantapur",
    "description": "This is a demo report for a garbage dump observed in Anantapur. Please attend to this.",
    "category": "Garbage Dump",
    "status": "resolved",
    "lat": 14.669810663808581,
    "lng": 77.63885312332827,
    "address": "{\"street\":\"3th Street\",\"city\":\"Anantapur\",\"district\":\"Anantapur\",\"state\":\"Andhra Pradesh\",\"country\":\"India\",\"postalCode\":\"500000\"}",
    "state": "Andhra Pradesh",
    "district": "Anantapur",
    "images": [],
    "imageId": "demo_image_id",
    "$createdAt": "2025-12-04T10:51:40.000Z",
    "upvotes": 23
  },
  {
    "userId": "REPLACE_WITH_ACTUAL_USER_ID",
    "name": "Sagar",
    "issueTitle": "Garbage Dump in Anantapur",
    "description": "This is a demo report for a garbage dump observed in Anantapur. Please attend to this.",
    "category": "Garbage Dump",
    "status": "open",
    "lat": 14.663471425517885,
    "lng": 77.60471966610172,
    "address": "{\"street\":\"42th Street\",\"city\":\"Anantapur\",\"district\":\"Anantapur\",\"state\":\"Andhra Pradesh\",\"country\":\"India\",\"postalCode\":\"500000\"}",
    "state": "Andhra Pradesh",
    "district": "Anantapur",
    "images": [],
    "imageId": "demo_image_id",
    "$createdAt": "2025-12-04T10:51:40.000Z",
    "upvotes": 39
  },
  {
    "userId": "REPLACE_WITH_ACTUAL_USER_ID",
    "name": "Sagar",
    "issueTitle": "Illegal Parking in Anantapur",
    "description": "This is a demo report for a illegal parking observed in Anantapur. Please attend to this.",
    "category": "Illegal Parking",
    "status": "in-progress",
    "lat": 14.665514682417118,
    "lng": 77.5770495476709,
    "address": "{\"street\":\"93th Street\",\"city\":\"Anantapur\",\"district\":\"Anantapur\",\"state\":\"Andhra Pradesh\",\"country\":\"India\",\"postalCode\":\"500000\"}",
    "state": "Andhra Pradesh",
    "district": "Anantapur",
    "images": [],
    "imageId": "demo_image_id",
    "$createdAt": "2025-12-04T10:51:40.000Z",
    "upvotes": 30
  },
  {
    "userId": "REPLACE_WITH_ACTUAL_USER_ID",
    "name": "Sagar",
    "issueTitle": "Water Leakage in Anantapur",
    "description": "This is a demo report for a water leakage observed in Anantapur. Please attend to this.",
    "category": "Water Leakage",
    "status": "open",
    "lat": 14.659625579873719,
    "lng": 77.60546386215835,
    "address": "{\"street\":\"25th Street\",\"city\":\"Anantapur\",\"district\":\"Anantapur\",\"state\":\"Andhra Pradesh\",\"country\":\"India\",\"postalCode\":\"500000\"}",
    "state": "Andhra Pradesh",
    "district": "Anantapur",
    "images": [],
    "imageId": "demo_image_id",
    "$createdAt": "2025-12-04T10:51:40.000Z",
    "upvotes": 0
  }
]